City_ID,City,Cloudiness,Country,Date,Humidity,Lat,Lng,Max_Temp,Wind_Speed
0,Albany,90,US,1529801640,82,42.65,-73.75,60.8,2.39
1,Busselton,0,AU,1529805870,100,-33.64,115.35,60.07,7.54
2,Saskylakh,56,RU,1529806732,100,71.97,114.09,65.38,4.63
3,Conceicao do Araguaia,0,BR,1529806732,60,-8.26,-49.26,74.38,3.51
4,Aklavik,90,CA,1529802000,75,68.22,-135.01,42.8,16.11
5,Vila Velha,0,BR,1529805600,65,-3.71,-38.6,80.6,12.75
6,Lorengau,64,PG,1529805870,100,-2.02,147.27,82.12,4.18
7,Bluff,20,AU,1529805869,32,-23.58,149.07,73.84,8.55
8,Lebu,64,ET,1529805892,71,8.96,38.73,51.97,2.39
9,Punta Arenas,90,CL,1529802000,100,-53.16,-70.91,33.8,10.29
10,Russell,0,AR,1529805600,91,-33.01,-68.8,48.2,4.7
11,Hobart,40,AU,1529803800,57,-42.88,147.33,51.8,11.41
12,Carutapera,44,BR,1529806734,82,-1.2,-46.02,80.05,8.77
13,Longonjo,0,AO,1529806734,74,-12.91,15.25,40.36,2.51
14,Kahului,40,US,1529805360,62,20.89,-156.47,84.2,32.21
15,Segou,12,SN,1529806735,93,12.41,-12.29,71.77,6.53
16,Baherden,88,TM,1529806735,42,38.44,57.43,75.37,1.16
17,Arraial do Cabo,0,BR,1529806735,87,-22.97,-42.02,71.5,17.05
18,Belaya Gora,0,RU,1529806736,50,68.54,146.19,66.55,7.76
19,Mahebourg,75,MU,1529802000,68,-20.41,57.7,71.6,8.05
20,Chokurdakh,0,RU,1529805878,83,70.62,147.9,52.33,8.66
21,Amalapuram,56,IN,1529806736,85,16.58,82.0,82.39,13.13
22,Tautira,20,PF,1529805000,62,-17.73,-149.15,84.2,3.36
23,Kununurra,0,AU,1529803800,20,-15.77,128.74,77.0,12.75
24,Longyearbyen,0,NO,1529801400,42,78.22,15.63,48.2,12.75
25,Victoria,75,BN,1529802000,83,5.28,115.24,82.4,4.7
26,Saint-Philippe,90,CA,1529804880,93,45.36,-73.48,60.8,3.36
27,Mataura,0,NZ,1529805887,76,-46.19,168.86,45.58,15.26
28,Hilo,90,US,1529804160,74,19.71,-155.08,78.8,11.41
29,San Patricio,92,PY,1529805896,93,-26.98,-56.83,67.99,3.4
30,Nikolskoye,0,RU,1529803800,62,59.7,30.79,59.0,2.24
31,Tilichiki,0,RU,1529806604,71,60.47,166.1,60.97,5.64
32,Severo-Kurilsk,68,RU,1529806739,91,50.68,156.12,46.03,14.03
33,Puerto Ayora,12,EC,1529805885,99,-0.74,-90.35,71.5,10.67
34,Mar del Plata,0,AR,1529806740,90,-46.43,-67.52,34.69,13.91
35,Vaini,100,IN,1529805874,100,15.34,74.49,68.8,3.62
36,Luderitz,0,NA,1529805878,93,-26.65,15.16,47.38,12.8
37,Kaniv,24,UA,1529806740,95,49.76,31.46,53.14,12.46
38,Katsuura,20,JP,1529802000,69,33.93,134.5,75.2,11.41
39,Heihe,20,RU,1529803800,56,50.24,127.51,68.0,11.18
40,Janauba,24,BR,1529806741,88,-1.63,-45.47,76.0,4.97
41,Dehloran,0,IR,1529806742,30,32.69,47.27,76.18,1.39
42,Kielce,20,PL,1529806742,95,50.87,20.63,50.17,8.21
43,Tuktoyaktuk,90,CA,1529802000,93,69.44,-133.03,35.6,14.99
44,Kruisfontein,36,ZA,1529806742,84,-34.0,24.73,61.24,22.19
45,Bredasdorp,92,ZA,1529802000,71,-34.53,20.04,57.2,8.05
46,Yellowknife,75,CA,1529802000,82,62.45,-114.38,66.2,10.29
47,Barrow,0,AR,1529805902,40,-38.31,-60.23,38.38,17.16
48,Rikitea,12,PF,1529805876,100,-23.12,-134.97,76.54,12.68
49,Ilulissat,75,GL,1529805000,99,69.22,-51.1,37.4,6.93
50,Talnakh,0,RU,1529806744,61,69.49,88.39,62.68,5.19
51,Port Alfred,0,ZA,1529805880,89,-33.59,26.89,62.59,19.73
52,Pinawa,36,CA,1529806744,71,50.15,-95.88,69.88,15.7
53,Pacific Grove,1,US,1529805720,72,36.62,-121.92,66.2,9.17
54,Capao da Canoa,68,BR,1529806745,93,-29.75,-50.01,64.39,19.73
55,Georgetown,40,GY,1529805600,100,6.8,-58.16,75.2,4.7
56,New Norfolk,40,AU,1529803800,57,-42.78,147.06,51.8,11.41
57,Bethel,75,US,1529805180,58,60.79,-161.76,55.4,9.17
58,Hermanus,48,ZA,1529805882,91,-34.42,19.24,52.6,5.75
59,Paamiut,44,GL,1529806747,100,61.99,-49.67,37.39,3.62
60,La Rioja,100,AR,1529806747,65,-29.41,-66.86,52.51,7.2
61,Husavik,20,CA,1529806747,71,50.56,-96.99,72.31,13.69
62,Manggar,76,ID,1529806748,76,-2.88,108.27,85.99,11.01
63,Chapais,90,CA,1529805480,87,49.78,-74.86,46.4,8.05
64,Turbat,56,PK,1529806748,88,26.0,63.05,83.29,6.42
65,Yar-Sale,0,RU,1529806748,72,66.83,70.83,50.35,18.05
66,Suffolk,1,US,1529805060,94,36.73,-76.58,82.4,6.93
67,Maningrida,0,AU,1529806749,67,-12.05,134.23,81.94,16.26
68,Tuatapere,32,NZ,1529806749,100,-46.13,167.69,44.14,16.49
69,Nelson Bay,92,AU,1529805600,55,-32.72,152.14,60.8,5.82
70,Komsomolskiy,0,RU,1529806750,72,67.55,63.78,55.66,11.34
71,Srivardhan,92,IN,1529806750,100,18.03,73.02,73.12,5.3
72,Guerrero Negro,0,MX,1529805898,78,27.97,-114.04,67.99,6.76
73,Emerald,32,AU,1529806751,36,-23.53,148.16,73.12,7.2
74,Gornopravdinsk,88,RU,1529806751,95,60.06,69.92,59.62,9.22
75,Hermiston,1,US,1529801580,22,45.84,-119.29,86.0,3.4
76,Qaanaaq,56,GL,1529806627,93,77.48,-69.36,32.62,4.29
77,Atuona,0,PF,1529805890,100,-9.8,-139.03,80.59,17.72
78,Sambava,88,MG,1529806752,100,-14.27,50.17,74.02,19.17
79,Axim,92,GH,1529806753,100,4.87,-2.24,76.72,6.87
80,Kapaa,20,US,1529801760,66,22.08,-159.32,84.2,20.8
81,Montrose,75,AU,1529803800,62,-37.81,145.34,51.8,9.17
82,East London,0,ZA,1529805667,100,-33.02,27.91,63.58,23.31
83,Chinhoyi,20,ZW,1529806754,86,-17.36,30.19,52.6,6.08
84,Ushuaia,75,AR,1529802000,86,-54.81,-68.31,28.4,5.82
85,Ribeira Grande,92,PT,1529806644,100,38.52,-28.7,70.69,4.97
86,Lompoc,90,US,1529805480,87,34.64,-120.46,73.4,4.7
87,Marsh Harbour,0,BS,1529806491,99,26.54,-77.06,83.11,11.23
88,Jamestown,0,AU,1529805898,48,-33.21,138.6,56.29,6.2
89,Huntingdon,1,GB,1529805360,100,52.33,-0.18,53.6,3.36
90,Sioux Lookout,90,CA,1529802000,93,50.1,-91.92,64.4,6.93
91,Castro,56,CL,1529805888,100,-42.48,-73.76,28.39,2.95
92,Cockburn Town,0,TC,1529806756,99,21.46,-71.14,81.22,21.52
93,Thompson,20,CA,1529802000,23,55.74,-97.86,73.4,9.17
94,Leningradskiy,20,RU,1529805889,92,69.38,178.42,33.7,13.35
95,Storforshei,76,NO,1529806757,100,66.4,14.52,34.24,1.95
96,Caxito,0,BR,1529806757,75,-22.65,-42.51,66.01,6.42
97,Bubaque,20,GW,1529802000,83,11.28,-15.83,80.6,5.82
98,Arkadelphia,20,US,1529805300,62,34.12,-93.05,87.8,3.62
99,Onokhoy,20,RU,1529803800,49,51.92,108.05,68.0,6.71
100,Mosta,20,MT,1529804700,88,35.91,14.42,68.0,4.7
101,Acoua,75,YT,1529803800,74,-12.72,45.06,78.8,16.11
102,Fortuna,0,ES,1529803800,73,38.18,-1.13,71.6,4.7
103,Havre-Saint-Pierre,90,CA,1529802000,76,50.23,-63.6,55.4,4.7
104,Srednekolymsk,12,RU,1529806759,53,67.46,153.71,65.47,5.86
105,Koshurnikovo,0,RU,1529806760,61,54.3,93.39,74.02,3.18
106,Port Elizabeth,90,US,1529805840,100,39.31,-74.98,71.6,6.93
107,Bontang,68,ID,1529806761,98,0.12,117.47,82.39,2.62
108,Touros,88,BR,1529806761,99,-5.2,-35.46,74.29,11.34
109,Bonavista,56,CA,1529806761,64,48.65,-53.11,52.96,21.3
110,Katangli,92,RU,1529806762,100,51.71,143.23,42.52,13.8
111,Kaitangata,0,NZ,1529806762,67,-46.28,169.85,46.57,19.06
112,Daman,92,IN,1529806652,100,20.42,72.83,76.99,13.35
113,College,76,US,1529805480,37,64.86,-147.8,68.0,6.93
114,Dwarka,75,IN,1529803800,38,28.58,77.04,93.2,4.7
115,Kandrian,68,PG,1529806763,82,-6.21,149.55,80.41,6.87
116,Klaksvik,92,FO,1529805000,100,62.23,-6.59,50.0,6.93
117,Mutoko,8,ZW,1529806764,86,-17.4,32.23,43.51,2.62
118,Provideniya,88,RU,1529806764,100,64.42,-173.23,40.72,11.45
119,Gallup,1,US,1529805180,5,35.53,-108.74,89.6,11.41
120,Kamiiso,75,JP,1529802000,82,41.82,140.65,64.4,13.87
121,Hithadhoo,64,MV,1529805873,100,-0.6,73.08,81.67,5.86
122,Douglas,90,US,1529805360,71,58.28,-134.39,59.0,10.29
123,Tsarychanka,0,UA,1529806766,86,48.94,34.49,56.56,14.25
124,Tabou,88,CI,1529806766,100,4.42,-7.36,78.16,7.43
125,Torbay,75,CA,1529802000,47,47.66,-52.73,55.4,33.33
126,Isangel,0,VU,1529806767,100,-19.55,169.27,72.76,12.01
127,Chimbote,76,PE,1529806768,100,-9.08,-78.59,59.62,5.64
128,Gigmoto,68,PH,1529806768,100,13.78,124.39,83.47,3.96
129,Qaqortoq,75,GL,1529805000,80,60.72,-46.03,41.0,2.24
130,Rio Gallegos,90,AR,1529805600,100,-51.62,-69.22,33.8,14.99
131,Whitehorse,40,CA,1529802000,30,60.72,-135.06,69.8,12.75
132,Kodiak,1,US,1529801580,65,39.95,-94.76,80.6,6.93
133,Nishihara,75,JP,1529804700,94,35.74,139.53,69.8,8.05
134,Airai,0,TL,1529806770,43,-8.93,125.41,80.86,2.84
135,Kiama,0,AU,1529802000,44,-34.67,150.86,57.2,10.29
136,Puri,20,ID,1529803800,66,-7.54,112.45,86.0,1.12
137,Avera,1,US,1529805300,83,33.19,-82.53,80.6,3.36
138,Lata,0,IN,1529806771,77,30.78,78.62,67.27,0.94
139,Butaritari,44,KI,1529805871,100,3.07,172.79,84.46,3.51
140,Clyde River,20,CA,1529802000,75,70.47,-68.59,41.0,3.36
141,Camaqua,92,BR,1529806697,100,-30.85,-51.81,52.87,16.37
142,Geraldton,90,CA,1529802000,87,49.72,-86.95,46.4,12.75
143,Trincomalee,32,LK,1529806772,70,8.58,81.23,83.11,16.04
144,Cape Town,75,ZA,1529802000,93,-33.93,18.42,55.4,2.24
145,Karratha,0,AU,1529806772,20,-20.74,116.85,70.78,18.5
146,Chenzhou,32,CN,1529806773,77,25.81,113.03,87.34,10.0
147,Cabo San Lucas,5,MX,1529804640,68,22.89,-109.91,77.0,14.99
148,Pastavy,92,BY,1529806773,100,55.11,26.84,51.97,5.64
149,Chuy,0,UY,1529806634,96,-33.69,-53.46,48.19,16.93
150,Senador Guiomard,0,BR,1529805600,88,-10.15,-67.74,73.4,2.24
151,Upernavik,76,GL,1529805905,100,72.79,-56.15,29.83,4.07
152,Pangnirtung,48,CA,1529806774,95,66.15,-65.72,30.37,1.39
153,Svetlogorsk,0,RU,1529803800,72,53.14,59.15,60.8,8.95
154,Sekondi,100,GH,1529806774,97,4.94,-1.71,75.82,5.19
155,Yulara,0,AU,1529802000,35,-25.24,130.99,57.2,10.29
156,Ochakiv,0,UA,1529803800,87,46.61,31.55,50.0,2.24
157,Kaniama,12,CD,1529806775,67,-7.57,24.18,68.26,0.94
158,Dikson,76,RU,1529806776,98,73.51,80.55,32.26,12.24
159,Leh,80,IN,1529806777,100,34.16,77.58,31.54,1.83
160,Vysokogornyy,92,RU,1529806777,87,50.1,139.13,44.14,4.74
161,Fukue,75,JP,1529803800,83,35.03,136.69,71.6,3.36
162,Midland,0,US,1529804100,19,32.0,-102.08,102.2,6.42
163,Talcahuano,0,CL,1529805600,65,-36.72,-73.12,44.6,11.41
164,Carnarvon,8,ZA,1529805874,72,-30.97,22.13,21.28,3.06
165,Oum Hadjer,64,TD,1529806779,90,13.3,19.7,70.96,6.42
166,Haines Junction,32,CA,1529806779,40,60.75,-137.51,55.66,2.62
167,Dzaoudzi,75,YT,1529803800,74,-12.79,45.27,78.8,16.11
168,Chambas,40,CU,1529805060,74,22.19,-78.91,80.6,6.93
169,Severomuysk,56,RU,1529806780,92,56.17,113.57,55.12,2.62
170,Vila do Maio,40,CV,1529805600,78,15.13,-23.22,73.4,11.41
171,Kulaman,12,PH,1529806781,88,6.46,124.09,80.59,2.51
172,Constitucion,75,MX,1529804460,53,23.99,-104.67,73.4,10.29
173,Owensboro,1,US,1529805360,74,37.77,-87.11,78.8,7.54
174,Tasiilaq,75,GL,1529801400,86,65.61,-37.64,39.2,6.93
175,Port Hardy,75,CA,1529802000,67,50.7,-127.42,62.6,6.93
176,Sao Filipe,0,CV,1529806782,100,14.9,-24.5,72.49,12.01
177,Tabuk,64,PH,1529806782,84,17.41,121.44,77.8,2.06
178,Khatanga,68,RU,1529805893,86,71.98,102.47,53.86,11.01
179,Peddapalli,68,IN,1529806783,94,18.61,79.38,79.06,9.66
180,Itarema,8,BR,1529806784,80,-2.92,-39.92,77.89,13.13
181,Buala,68,SB,1529806784,100,-8.15,159.59,77.53,6.76
182,Murray Bridge,0,AU,1529806784,100,-35.12,139.28,53.32,6.42
183,Novoagansk,92,RU,1529806784,90,61.94,76.66,57.19,7.2
184,Dubbo,0,AU,1529803800,46,-32.25,148.6,53.6,8.05
185,Taoudenni,0,ML,1529806785,18,22.68,-3.98,72.49,4.63
186,Petropavlovsk-Kamchatskiy,20,RU,1529803800,76,53.05,158.65,51.8,13.42
187,Outjo,0,NA,1529806785,69,-20.11,16.16,40.81,2.95
188,Norman Wells,75,CA,1529802000,56,65.28,-126.83,69.8,20.8
189,Nome,40,US,1529804100,78,30.04,-94.42,84.2,5.82
190,Cherskiy,80,RU,1529806786,44,68.75,161.3,60.16,5.3
191,Port Lincoln,76,AU,1529806646,97,-34.72,135.86,57.46,11.12
192,Ostrovnoy,0,RU,1529806787,67,68.05,39.51,56.83,17.49
193,Barcelos,0,PT,1529805600,93,41.53,-8.62,66.2,2.17
194,Olinda,75,EC,1529805600,73,-2.03,-79.75,75.2,11.41
195,Byron Bay,0,AU,1529803800,46,-28.65,153.62,69.8,9.17
196,Tagusao,12,PH,1529806788,91,9.19,117.81,85.72,1.16
197,Miri,32,NG,1529806788,98,10.31,9.75,63.04,3.18
198,Ahuimanu,40,US,1529805420,65,21.44,-157.84,84.2,11.41
199,Bolshaya Dzhalga,92,RU,1529806789,61,45.97,42.7,76.09,9.22
200,Ancud,0,CL,1529806789,81,-41.87,-73.83,27.58,0.94
201,Umm Lajj,0,SA,1529806789,98,25.02,37.27,78.07,4.41
202,Mana,88,RS,1529805600,100,43.52,20.24,48.2,2.24
203,Acapulco,90,MX,1529805000,94,16.86,-99.88,75.2,4.7
204,Ponta do Sol,24,BR,1529806635,72,-20.63,-46.0,61.24,3.96
205,Fleron,0,BE,1529805300,81,50.62,5.68,53.6,2.24
206,Robertsport,100,LR,1529806791,100,6.75,-11.37,76.54,6.42
207,Micheweni,0,TZ,1529806791,100,-4.97,39.83,78.25,16.49
208,North Platte,1,US,1529801580,45,41.12,-100.77,86.0,5.82
209,Veraval,0,FR,1529805600,81,49.65,0.71,55.4,7.76
210,Iqaluit,75,CA,1529802000,70,63.75,-68.52,42.8,14.99
211,Ponnani,75,IN,1529803800,83,10.77,75.93,75.2,2.24
212,Syracuse,90,US,1529801760,93,43.05,-76.15,69.8,5.82
213,Sadiqabad,0,PK,1529806746,42,28.31,70.13,93.91,8.66
214,Lavrentiya,68,RU,1529805873,92,65.58,-170.99,39.37,8.43
215,Nioro,32,GM,1529805897,72,13.79,-15.05,77.62,10.67
216,Cidreira,80,BR,1529806651,89,-30.17,-50.22,62.32,13.69
217,Huarmey,0,PE,1529806794,92,-10.07,-78.15,50.71,3.4
218,Manolas,0,GR,1529805000,93,38.05,21.35,66.2,2.39
219,Daru,88,SL,1529806794,99,7.99,-10.85,69.79,2.62
220,Atherton,36,GB,1529805000,93,53.52,-2.49,51.8,2.24
221,Mayo,75,CA,1529802000,43,63.59,-135.9,69.8,5.82
222,Avarua,40,CK,1529805600,78,-21.21,-159.78,80.6,5.82
223,Thunder Bay,90,CA,1529802000,72,48.41,-89.26,59.0,5.82
224,Dali,92,CN,1529806796,74,25.6,100.24,71.95,1.95
225,Oktyabrskiy,0,RU,1529803800,63,55.61,37.97,68.0,8.95
226,Nanortalik,88,GL,1529806797,100,60.14,-45.24,35.59,8.1
227,Norrtalje,0,SE,1529805000,93,59.76,18.7,46.4,2.24
228,Robertson,20,ZA,1529806797,83,-33.8,19.88,32.26,2.17
229,Matamoros,75,US,1529803800,79,25.87,-97.51,86.0,17.22
230,Destin,1,US,1529805360,83,30.39,-86.5,82.4,4.7
231,Cap Malheureux,75,MU,1529802000,68,-19.98,57.61,71.6,8.05
232,Alofi,68,NU,1529802000,69,-19.06,-169.92,80.6,14.99
233,Alice Springs,0,AU,1529803800,37,-23.7,133.88,55.4,13.87
234,Marovoay,20,MG,1529802000,88,-16.11,46.64,69.8,7.2
235,Cabedelo,40,BR,1529805600,83,-6.97,-34.84,73.4,4.7
236,Westport,0,IE,1529806528,100,53.8,-9.52,42.79,0.49
237,Nabire,36,ID,1529806800,87,-3.36,135.5,75.55,2.17
238,Dok Kham Tai,80,TH,1529806800,86,19.16,99.99,76.99,9.1
239,Mackay,20,CA,1529802000,38,53.65,-115.58,77.0,6.93
240,Zhuhai,40,CN,1529802000,47,40.71,112.04,77.0,8.95
241,Loukhi,56,RU,1529806801,69,66.08,33.04,55.3,7.99
242,Mackenzie,1,CA,1529802000,31,55.34,-123.09,73.4,11.41
243,Bathsheba,20,BB,1529802000,66,13.22,-59.52,84.2,21.92
244,Faanui,8,PF,1529806641,100,-16.48,-151.75,80.59,13.58
245,Atambua,0,ID,1529806802,76,-9.11,124.89,84.01,11.23
246,Havelock,1,US,1529805480,94,34.88,-76.9,82.4,11.41
247,Narsaq,75,GL,1529805000,80,60.91,-46.05,41.0,2.24
248,Laguna,5,MX,1529804400,45,27.52,-110.01,84.2,9.17
249,Zaraza,88,VE,1529806804,93,9.35,-65.33,74.02,1.16
250,Wairoa,8,NZ,1529806804,84,-39.04,177.43,56.38,15.26
251,Piacabucu,92,BR,1529806804,72,-10.41,-36.43,75.19,9.44
252,Esperance,40,TT,1529802000,94,10.24,-61.45,77.0,13.87
253,Pevek,12,RU,1529805894,67,69.7,170.27,45.04,10.56
254,Shanghai,75,CN,1529803800,78,31.23,121.49,77.0,8.95
255,Faya,0,SA,1529802000,21,18.39,42.45,69.8,1.61
256,Pasighat,48,IN,1529806806,89,28.06,95.33,74.92,0.38
257,Safranbolu,92,TR,1529806733,100,41.25,32.69,59.89,1.83
258,Mogadishu,80,SO,1529806806,98,2.04,45.34,78.79,20.62
259,Hofn,36,IS,1529805896,93,64.25,-15.21,48.82,8.66
260,Kihei,40,US,1529805360,62,20.76,-156.45,84.2,32.21
261,Grand Gaube,75,MU,1529802000,68,-20.01,57.66,71.6,8.05
262,Teya,90,MX,1529804760,94,21.05,-89.07,75.2,7.65
263,Sawakin,76,SD,1529806808,62,19.1,37.33,84.01,3.18
264,Ponta Delgada,75,PT,1529805600,77,37.73,-25.67,66.2,6.93
265,Novobelokatay,0,RU,1529806808,67,55.7,58.96,66.19,8.88
266,Caravelas,8,BR,1529806809,100,-17.73,-39.27,76.36,11.23
267,Baiyin,0,CN,1529802000,60,36.55,104.13,68.0,8.95
268,Antu,0,CN,1529806809,57,43.11,128.89,74.92,3.74
269,Saint George,75,GR,1529801400,64,39.45,22.34,69.8,4.7
270,Santa Isabel,75,CO,1529805600,83,4.71,-75.1,73.4,6.93
271,Saint-Augustin,0,FR,1529805600,59,44.83,-0.61,62.6,4.7
272,Ambon,0,FR,1529805600,67,47.55,-2.56,59.0,5.82
273,Manyana,0,AU,1529802000,44,-35.26,150.51,57.2,10.29
274,Suzdal,0,RU,1529806812,51,56.42,40.45,74.02,12.01
275,Tikapur,0,NP,1529806812,56,28.53,81.12,88.24,1.72
276,Angoche,68,MZ,1529806813,100,-16.23,39.91,75.37,9.78
277,Bonoua,40,CI,1529805600,100,5.27,-3.6,75.2,1.12
278,Broken Hill,0,AU,1529806813,74,-31.97,141.45,55.84,5.19
279,Los Llanos de Aridane,0,ES,1529805600,72,28.66,-17.92,68.0,4.7
280,San Francisco Menendez,0,SV,1529801400,69,13.84,-90.02,82.4,3.36
281,Benghazi,0,LY,1529806814,98,32.12,20.07,75.55,10.33
282,Derzhavinsk,0,KZ,1529806815,60,51.1,66.31,71.5,5.3
283,Curtici,0,RO,1529805600,93,46.34,21.31,50.0,3.36
284,Hastings,0,NZ,1529806563,80,-39.64,176.84,59.08,16.26
285,Lakeway,1,US,1529805060,58,30.36,-97.99,91.4,11.41
286,Payson,1,US,1529804100,26,40.04,-111.73,82.4,16.11
287,Half Moon Bay,1,US,1529805360,46,37.46,-122.43,98.6,13.87
288,Varkkallai,75,IN,1529803800,88,8.73,76.71,78.8,2.24
289,Ambulu,68,ID,1529806817,95,-8.35,113.61,78.97,9.66
290,Weligama,44,LK,1529806608,100,5.97,80.42,77.26,4.41
291,Halesowen,0,GB,1529805000,66,52.45,-2.05,53.6,6.93
292,Cheremkhovo,0,RU,1529806818,81,53.15,103.07,69.88,5.75
293,Dillon,90,US,1529805180,66,45.22,-112.64,53.6,11.41
294,San Cristobal,20,EC,1529805600,81,-0.39,-78.55,51.8,11.41
295,Bambous Virieux,75,MU,1529802000,68,-20.34,57.76,71.6,8.05
296,Mount Isa,56,AU,1529803800,38,-20.73,139.49,75.2,6.93
297,Caborca,0,MX,1529806819,26,30.58,-111.1,85.09,8.66
298,Hervey Bay,92,AU,1529806654,100,-25.3,152.85,63.67,7.2
299,Puerto Narino,20,CO,1529805600,94,-3.77,-70.38,73.4,2.24
300,Zhengjiatun,20,CN,1529806820,55,43.51,123.51,84.19,6.98
301,Moree,0,AU,1529806820,78,-29.46,149.84,60.16,4.52
302,Goure,8,NE,1529806820,80,13.98,10.27,74.02,6.64
303,Vardo,90,US,1529806320,100,39.62,-77.74,73.4,6.93
304,Ochsenfurt,1,DE,1529805360,100,49.67,10.07,48.2,3.36
305,Sharan,0,AF,1529806821,58,33.15,68.78,65.29,3.62
306,Kutum,12,SD,1529806821,82,14.2,24.66,64.21,3.4
307,Chapleau,75,CA,1529802000,67,47.85,-83.4,59.0,16.11
308,Apac,32,UG,1529806822,100,1.98,32.53,62.41,3.96
309,Belyy Yar,0,RU,1529803800,56,53.6,91.39,69.8,4.47
310,Neiafu,40,TO,1529805600,69,-18.65,-173.98,80.6,12.75
311,Barsovo,75,RU,1529803800,100,61.17,73.17,57.2,8.95
312,Yumen,8,CN,1529806824,70,40.29,97.04,74.29,3.4
313,Diego de Almagro,64,CL,1529806824,96,-26.39,-70.05,50.8,1.61
314,Tsiroanomandidy,0,MG,1529806824,85,-18.77,46.05,41.62,3.4
315,Ferrol,0,ES,1529805600,82,43.48,-8.23,66.2,2.17
316,Miraflores,80,CO,1529806825,99,5.2,-73.14,51.25,1.16
317,Sao Joao da Barra,0,BR,1529806391,96,-21.64,-41.05,74.56,21.41
318,Naze,92,NG,1529805882,99,5.43,7.07,71.14,2.39
319,Tiksi,20,RU,1529806545,46,71.64,128.87,77.8,4.18
320,Breves,92,BR,1529806826,100,-1.68,-50.48,74.74,3.06
321,Peniche,40,PT,1529805600,93,39.36,-9.38,66.2,2.24
322,Myrtle Beach,1,US,1529805300,74,33.7,-78.89,84.2,4.7
323,Nemuro,75,JP,1529802000,77,43.32,145.57,69.8,5.82
324,Port Hueneme,40,US,1529805480,72,34.15,-119.2,69.8,18.34
325,Lagos,40,NG,1529802000,94,6.46,3.39,75.2,6.31
326,Mount Gambier,88,AU,1529806828,95,-37.83,140.78,50.44,3.18
327,Ginir,76,ET,1529806828,88,7.14,40.71,59.89,4.63
328,Port Blair,76,IN,1529806644,100,11.67,92.75,82.66,17.83
329,Shimoda,75,JP,1529804400,83,34.7,138.93,73.4,4.7
330,Barstow,1,US,1529804100,14,31.46,-103.39,100.4,6.93
331,Ayacucho,0,PE,1529806829,83,-13.16,-74.23,27.4,2.17
332,Birao,68,CF,1529806829,98,10.3,22.78,69.52,2.95
333,Mandalgovi,80,MN,1529805877,68,45.76,106.27,61.96,15.03
334,Porto Novo,40,BR,1529805600,64,-23.68,-45.44,69.8,3.36
335,Vao,68,EE,1529806830,84,59.1,26.19,52.15,5.53
336,Wad Rawah,36,SD,1529806830,75,15.16,33.13,75.01,12.24
337,Lazaro Cardenas,40,MX,1529804880,44,28.39,-105.62,91.4,3.62
338,Henties Bay,0,NA,1529806831,100,-22.12,14.28,53.23,6.98
339,Yerofey Pavlovich,36,RU,1529806831,56,53.97,121.97,70.51,6.08
340,Marrakesh,0,MA,1529805600,72,31.63,-7.99,66.2,8.05
341,Kefamenanu,0,ID,1529806832,42,-9.45,124.48,81.76,4.18
342,Tara,20,JP,1529803800,61,33.0,130.15,78.8,13.87
343,Alghero,0,IT,1529803200,93,40.56,8.32,66.2,1.12
344,Anadyr,75,RU,1529802000,71,64.73,177.51,50.0,13.42
345,Codrington,0,AU,1529806623,63,-28.95,153.24,63.58,3.85
346,Beloha,0,MG,1529806833,89,-25.17,45.06,58.63,8.66
347,Metro,56,ID,1529806809,100,-5.11,105.31,79.69,3.4
348,Iwanai,76,JP,1529806687,98,42.97,140.51,59.44,4.97
349,Omboue,92,GA,1529806834,100,-1.57,9.26,74.29,7.31
350,Candolim,92,IN,1529806834,100,15.52,73.76,72.85,4.18
351,Tolaga Bay,0,NZ,1529806834,69,-38.37,178.3,56.47,14.7
352,Vestmannaeyjar,92,IS,1529806835,100,63.44,-20.27,47.29,6.98
353,Kavaratti,48,IN,1529806628,100,10.57,72.64,80.86,18.05
354,Bastia,0,IT,1529805000,49,44.6,8.98,71.6,3.36
355,Cayenne,80,GF,1529805600,100,4.94,-52.33,75.2,3.96
356,Luorong,88,CN,1529806836,93,24.41,109.6,79.06,10.45
357,Turukhansk,48,RU,1529806650,99,65.8,87.96,69.16,8.55
358,Nizwa,8,OM,1529806837,28,22.93,57.53,84.1,2.84
359,Imbituba,0,BR,1529802000,93,-28.24,-48.67,64.4,3.36
360,Kirovsk,68,RU,1529806838,90,67.62,33.66,48.01,7.87
361,Tra Vinh,24,VN,1529806838,82,9.93,106.35,86.62,8.99
362,Nouadhibou,0,MR,1529805600,82,20.93,-17.03,66.2,16.11
363,Charters Towers,0,AU,1529806839,77,-20.07,146.27,71.05,10.67
364,Znamenka,36,RU,1529806839,34,52.41,41.44,72.04,11.34
365,Hearst,100,CA,1529806840,87,49.69,-83.67,47.92,8.55
366,Lookan,88,PH,1529806840,100,5.04,120.1,84.37,5.3
367,Kitab,20,UZ,1529803800,40,39.12,66.88,73.4,4.7
368,Sevsk,92,RU,1529806840,100,52.15,34.49,56.65,15.48
369,Beba,40,CU,1529805180,83,22.44,-79.73,78.8,3.36
370,La Ronge,75,CA,1529802000,72,55.1,-105.3,68.0,11.41
371,Mareeba,75,AU,1529803800,83,-16.99,145.42,73.4,16.11
372,Comodoro Rivadavia,0,AR,1529805600,47,-45.87,-67.48,37.4,10.29
373,Flinders,0,AU,1529802000,44,-34.58,150.85,57.2,10.29
374,Kamaishi,75,JP,1529802000,54,39.28,141.86,78.8,8.05
375,Egvekinot,36,RU,1529806843,67,66.32,-179.17,48.37,5.97
376,Juneau,90,US,1529805360,71,58.3,-134.42,59.0,10.29
377,Moose Factory,90,CA,1529802000,91,51.26,-80.61,44.6,8.05
378,Kaeo,24,NZ,1529806843,76,-35.1,173.78,58.09,15.03
379,Simoes,0,BR,1529806844,57,-7.6,-40.82,73.12,15.93
380,Berlevag,68,NO,1529806844,95,70.86,29.09,44.59,14.81
381,Hodod,88,RO,1529805600,100,47.4,23.02,50.0,1.12
382,Saint-Prosper,100,CA,1529806845,63,46.21,-70.48,60.61,3.74
383,Binga,44,ZW,1529806845,95,-17.62,27.34,59.17,1.39
384,Nago,0,IT,1529805000,76,45.88,10.89,62.6,5.82
385,Labe,92,NG,1529806845,100,7.7,8.47,70.33,3.4
386,Sibolga,80,ID,1529806846,91,1.74,98.78,74.11,2.28
387,San Quintin,20,PH,1529802000,74,17.54,120.52,84.2,6.93
388,Golden,48,CA,1529806781,94,51.3,-116.96,51.34,1.39
389,Zhigansk,12,RU,1529806846,35,66.77,123.37,76.27,2.06
390,Nagapattinam,56,IN,1529806798,67,10.76,79.84,84.82,9.66
391,Invermere,80,CA,1529806847,76,50.51,-116.03,57.19,1.72
392,Toamasina,75,MG,1529802000,94,-18.17,49.38,68.0,4.7
393,Suntar,24,RU,1529806848,61,62.16,117.65,73.93,3.74
394,Beringovskiy,92,RU,1529806648,100,63.05,179.32,43.33,11.12
395,Rawson,0,AR,1529806848,52,-43.3,-65.11,27.22,9.66
396,Balakhninskiy,92,RU,1529806848,84,58.01,114.28,61.6,3.96
397,Oga,92,NG,1529806849,98,8.18,5.65,71.41,4.97
398,Souillac,0,FR,1529805600,63,45.6,-0.6,60.8,2.24
399,Boguchany,0,RU,1529806849,61,58.38,97.46,74.56,4.18
400,Serpa,0,PT,1529805600,88,37.94,-7.6,62.6,3.18
401,Ranot,24,TH,1529806850,94,7.78,100.32,83.38,4.74
402,Elko,1,US,1529801760,18,40.83,-115.76,80.6,19.46
403,Sungaipenuh,92,ID,1529806851,91,-2.08,101.38,71.32,1.95
404,Garoua Boulai,92,CM,1529806851,92,5.88,14.55,60.97,2.95
405,Aberystwyth,12,GB,1529806851,97,52.41,-4.08,49.81,2.95
406,Mbandaka,56,CD,1529806852,100,0.05,18.26,70.06,2.62
407,Fairbanks,76,US,1529805480,37,64.84,-147.72,68.0,6.93
408,High Level,75,CA,1529802000,50,58.52,-117.13,78.8,5.82
409,Uyemskiy,0,RU,1529803800,71,64.47,40.85,55.4,6.71
410,Hambantota,24,LK,1529806639,100,6.12,81.12,78.61,10.56
411,Saint-Francois,0,FR,1529805600,87,46.42,3.91,51.8,6.2
412,Lagoa,0,PT,1529805600,88,37.14,-8.45,69.8,3.36
413,Bosaso,64,SO,1529806854,86,11.28,49.18,89.23,15.14
414,Taltal,36,CL,1529806854,98,-25.41,-70.49,48.82,1.72
415,Ati,64,TD,1529806855,85,13.21,18.34,72.67,3.85
416,Imeni Poliny Osipenko,44,RU,1529806855,85,52.42,136.49,54.04,10.45
417,Kupang,40,ID,1529803800,54,-10.16,123.6,84.2,23.04
418,Namatanai,64,PG,1529805888,100,-3.66,152.44,80.59,5.86
419,Talas,0,TR,1529805000,77,38.69,35.55,60.8,6.93
420,San Rafael,0,AR,1529806857,80,-34.61,-68.33,23.53,2.51
421,Rossland,40,CA,1529802000,50,49.08,-117.8,75.2,3.36
422,Abu Samrah,0,SY,1529806858,91,35.3,37.18,66.82,11.23
423,Poum,48,MK,1529806857,98,41.28,20.71,42.61,1.61
424,Dzhebariki-Khaya,88,RU,1529806858,57,62.22,135.8,66.73,3.18
425,Dryden,90,CA,1529802000,88,49.79,-92.84,64.4,14.99
426,Lahore,0,PK,1529803800,58,31.52,74.33,87.8,4.41
427,Tecoanapa,90,MX,1529805000,94,16.99,-99.26,75.2,4.7
428,Houma,0,CN,1529806810,48,35.63,111.36,84.82,5.3
429,Qeshm,75,IR,1529802000,84,26.96,56.27,86.0,6.93
430,Warah,0,YE,1529806859,43,13.4,44.12,70.24,3.62
431,Medzilaborce,48,SK,1529806860,99,49.27,21.9,48.28,2.84
432,Pirot,0,RS,1529805600,87,43.16,22.59,48.2,3.36
433,Bambanglipuro,88,ID,1529806860,88,-7.95,110.28,78.16,7.2
434,Sabinas,12,MX,1529806861,37,27.85,-101.13,91.84,11.68
435,Sept-Iles,90,CA,1529802000,71,50.2,-66.38,57.2,6.98
436,Boskoop,48,NL,1529805300,100,52.07,4.66,57.2,2.24
437,Beyla,44,GN,1529806861,97,8.69,-8.65,65.83,6.64
438,Surt,0,LY,1529806862,100,31.21,16.59,69.88,6.98
439,Mabaruma,76,GY,1529806862,100,8.2,-59.78,74.29,4.63
440,Kuala Terengganu,75,MY,1529802000,83,5.33,103.14,78.8,4.7
441,Terre Haute,1,US,1529805300,94,39.47,-87.41,71.6,3.62
442,Amapa,40,HN,1529805600,94,15.09,-87.97,82.4,10.29
443,Misratah,0,LY,1529806863,100,32.38,15.09,67.09,2.39
444,Valer,0,ES,1529806864,59,41.76,-6.18,61.42,4.29
445,Grand-Santi,20,GF,1529806864,100,4.27,-54.38,70.42,1.39
446,At-Bashi,24,KG,1529806864,66,41.17,75.81,52.42,2.39
447,Salinas,1,US,1529805720,72,36.67,-121.66,66.2,17.22
448,Aitape,64,PG,1529806865,100,-3.15,142.36,80.5,3.62
449,Dudinka,36,RU,1529806866,89,69.41,86.18,68.89,8.88
450,Richards Bay,0,ZA,1529805891,83,-28.77,32.06,53.86,3.4
451,Tarija,80,BO,1529806866,99,-21.53,-64.73,44.59,2.95
452,Tres Arroyos,0,AR,1529806866,40,-38.38,-60.28,38.38,17.16
453,Saint Anthony,90,US,1529805840,62,43.97,-111.68,59.0,3.36
454,Jaciara,12,BR,1529806867,66,-15.95,-54.98,64.3,2.62
455,Otradnoye,0,RU,1529803800,62,59.77,30.8,59.0,2.24
456,Zalantun,12,CN,1529806867,69,48.0,122.72,71.14,5.3
457,Lethem,8,GY,1529806868,91,3.38,-59.8,74.38,5.3
458,Waddan,0,LY,1529806868,56,29.16,16.14,69.7,5.64
459,Grobina,64,LV,1529805000,93,56.54,21.17,50.0,9.89
460,Valleyview,64,CA,1529806869,55,55.07,-117.28,72.76,5.75
461,Kibaya,80,RW,1529806869,95,-2.2,30.56,56.29,2.62
462,Dubove,100,UA,1529805600,93,48.18,23.89,48.2,4.7
463,Coahuayana,76,MX,1529806870,95,18.62,-100.35,64.12,2.17
464,Nantucket,90,US,1529806500,100,41.28,-70.1,62.6,5.82
465,Goroka,64,PG,1529806870,97,-6.07,145.39,64.12,0.94
466,Santa Comba,0,ES,1529805600,93,43.03,-8.81,66.2,4.7
467,Bandar,88,ID,1529806871,100,-4.2,104.14,75.82,4.18
468,Piranhas,0,BR,1529806871,71,-16.43,-51.82,62.41,2.95
469,Kavieng,32,PG,1529806642,100,-2.57,150.8,83.74,0.94
470,Springdale,20,US,1529805480,54,36.19,-94.13,80.6,4.7
471,Grindavik,90,IS,1529805600,93,63.84,-22.43,48.2,14.99
472,Vasterhaninge,32,SE,1529805000,93,59.12,18.1,46.4,2.28
473,Muros,0,ES,1529805600,93,42.77,-9.06,66.2,4.7
474,Basco,1,US,1529805300,94,40.33,-91.2,73.4,2.17
475,Gat,76,SN,1529806874,93,14.69,-16.54,73.84,7.99
476,Morro Bay,1,US,1529805360,72,35.37,-120.85,68.0,5.82
477,Saryg-Sep,0,RU,1529806874,53,51.49,95.55,69.97,2.62
478,Baglung,20,NP,1529806803,90,28.27,83.59,68.35,0.72
479,Coquimbo,0,CL,1529805600,93,-29.95,-71.34,44.6,5.64
480,Meulaboh,64,ID,1529806875,100,4.14,96.13,81.04,2.73
481,Dunedin,8,NZ,1529806632,79,-45.87,170.5,45.58,9.78
482,Nichinan,75,JP,1529802000,83,31.65,131.31,75.2,8.05
483,Lawton,75,US,1529804100,70,34.61,-98.39,93.2,12.75
484,Gamba,80,CN,1529806876,93,28.28,88.52,34.42,1.05
485,Tacoronte,36,ES,1529805600,93,28.48,-16.41,69.8,17.22
486,Sola,75,NO,1529805000,93,58.89,5.65,51.8,8.05
487,Bulgan,12,MN,1529806877,70,48.81,103.53,63.76,4.41
488,Cairns,75,AU,1529803800,83,-16.92,145.77,73.4,16.11
489,Camacha,40,PT,1529805600,88,33.08,-16.33,66.2,10.29
490,Kosonsoy,20,UZ,1529803800,38,41.25,71.55,75.2,11.41
491,Tatarsk,20,RU,1529806879,63,55.22,75.96,70.24,8.21
492,Kijang,0,KR,1529802000,54,35.24,129.21,82.4,12.75
493,Lamu,76,ID,1529806880,89,0.57,122.3,80.23,2.95
494,Pokaran,0,IN,1529806880,58,26.93,71.92,89.41,8.66
495,Balaipungut,64,ID,1529806881,87,1.11,101.31,79.87,3.62
496,Edd,0,ER,1529806881,59,13.93,41.69,74.11,2.51
497,Taldan,0,RU,1529806881,56,53.69,124.82,73.66,3.62
498,Gazanjyk,0,TM,1529806882,34,39.24,55.52,76.54,2.95
499,Salalah,75,OM,1529801400,88,17.01,54.1,80.6,8.05
500,Macau,76,BR,1529806882,68,-5.11,-36.64,75.64,7.87
501,Carmen,0,PH,1529806882,82,7.2,124.8,86.17,2.62
502,Loandjili,75,CG,1529805600,94,-4.77,11.87,69.8,4.07
503,Fort Nelson,75,CA,1529805060,31,58.81,-122.69,77.0,14.99
504,Lesnoy,32,RU,1529806883,55,59.78,52.13,69.07,3.4
505,Kamskoye Ustye,0,RU,1529803800,82,55.2,49.27,64.4,3.18
506,Nushki,0,PK,1529806748,13,29.55,66.02,78.07,3.29
507,Sur,24,OM,1529806884,84,22.57,59.53,88.96,2.62
508,Goderich,68,CA,1529806585,97,43.74,-81.71,64.66,3.74
509,Colares,0,PT,1529805600,82,38.8,-9.45,66.2,4.74
510,Nuuk,68,GL,1529805000,80,64.17,-51.74,41.0,9.17
511,Aygut,0,AM,1529806885,88,40.68,45.17,54.67,1.72
512,Cranbrook,90,CA,1529802000,82,49.51,-115.76,62.6,3.36
513,Thinadhoo,0,MV,1529806886,100,0.53,72.93,82.93,6.53
514,Gravdal,92,NO,1529805000,100,59.79,5.78,51.8,6.93
515,Cacoal,0,BR,1529806887,73,-11.43,-61.44,71.23,1.72
516,Tahara,75,JP,1529803800,83,34.64,137.18,71.6,3.36
517,Pierre,1,US,1529801580,73,44.37,-100.35,71.6,8.05
518,Bela,36,PK,1529806888,86,26.23,66.31,77.26,2.51
519,Maragogi,0,BR,1529806888,90,-9.01,-35.22,74.74,10.45
520,Lakselv,92,NO,1529805000,61,70.05,24.96,48.2,3.36
521,Hohhot,40,CN,1529802000,47,40.81,111.65,77.0,8.95
522,San Jose,88,PH,1529806799,92,15.79,120.99,81.04,2.51
523,Kuusamo,75,FI,1529805000,93,65.96,29.19,46.4,9.17
524,Shizunai,0,JP,1529806891,80,42.33,142.37,68.71,7.65
525,Vinh,68,VN,1529806891,57,18.67,105.69,89.14,15.93
526,Oranjemund,0,ZA,1529806891,100,-28.55,16.43,57.73,11.01
527,Sao Jose da Coroa Grande,0,BR,1529806892,90,-8.9,-35.15,74.74,10.45
528,Honningsvag,92,NO,1529806636,100,70.98,25.97,43.51,20.51
529,Sadovoye,80,RU,1529806892,37,47.78,44.52,71.05,4.74
530,Bayonet Point,1,US,1529806500,78,28.33,-82.68,86.0,6.64
531,Necochea,0,AR,1529806893,91,-38.55,-58.74,40.81,20.62
532,Saldanha,0,PT,1529806635,70,41.42,-6.55,61.33,4.74
533,Borba,0,PT,1529806894,72,38.81,-7.46,66.46,4.07
534,Pimentel,8,BR,1529806894,91,-3.7,-45.5,74.2,2.28
535,Yangambi,0,CD,1529806895,100,0.77,24.47,68.44,2.28
536,Kawalu,80,ID,1529806895,95,-7.38,108.21,70.96,1.39
537,Tual,24,ID,1529806895,99,-5.67,132.75,80.32,15.03
538,Strezhevoy,75,RU,1529803800,100,60.73,77.6,55.4,11.18
539,Gland,0,CH,1529805600,66,46.42,6.27,55.4,1.12
540,Hobyo,56,SO,1529806896,77,5.35,48.53,76.45,20.51
541,Tipaturu,92,IN,1529806897,97,13.26,76.47,68.17,9.89
542,Makakilo City,20,US,1529805420,54,21.35,-158.09,84.2,14.99
543,Jawhar,92,IN,1529806897,100,19.91,73.23,73.48,4.85
544,Asyut,0,EG,1529805600,54,27.18,31.19,78.8,20.8
545,Shache,12,CN,1529806898,45,38.42,77.24,74.02,4.41
546,Kaseda,75,JP,1529802000,83,31.42,130.32,71.6,5.82
